[
    {
        "id": "1",
        "nome": "Goroka Airport",
        "cidade": "Goroka",
        "pais": "Papua New Guinea",
        "iata": "GKA",
        "icao": "AYGA",
        "latitude": "-6.081689834590001",
        "longitude": "145.391998291",
        "altitude": "5282",
        "timezone": "10",
        "dst": "U",
        "tz_database_time_zone": "Pacific/Port_Moresby",
        "type": "airport",
        "source": "OurAirports"
    },
    {
        "id": "2",
        "nome": "Madang Airport",
        "cidade": "Madang",
        "pais": "Papua New Guinea",
        "iata": "MAG",
        "icao": "AYMD",
        "latitude": "-5.20707988739",
        "longitude": "145.789001465",
        "altitude": "20",
        "timezone": "10",
        "dst": "U",
        "tz_database_time_zone": "Pacific/Port_Moresby",
        "type": "airport",
        "source": "OurAirports"
    },
    {
        "id": "3",
        "nome": "Mount Hagen Kagamuga Airport",
        "cidade": "Mount Hagen",
        "pais": "Papua New Guinea",
        "iata": "HGU",
        "icao": "AYMH",
        "latitude": "-5.826789855957031",
        "longitude": "144.29600524902344",
        "altitude": "5388",
        "timezone": "10",
        "dst": "U",
        "tz_database_time_zone": "Pacific/Port_Moresby",
        "type": "airport",
        "source": "OurAirports"
    },
    {
        "id": "4",
        "nome": "Nadzab Airport",
        "cidade": "Nadzab",
        "pais": "Papua New Guinea",
        "iata": "LAE",
        "icao": "AYNZ",
        "latitude": "-6.569803",
        "longitude": "146.725977",
        "altitude": "239",
        "timezone": "10",
        "dst": "U",
        "tz_database_time_zone": "Pacific/Port_Moresby",
        "type": "airport",
        "source": "OurAirports"
    },
    {
        "id": "5",
        "nome": "Port Moresby Jacksons International Airport",
        "cidade": "Port Moresby",
        "pais": "Papua New Guinea",
        "iata": "POM",
        "icao": "AYPY",
        "latitude": "-9.443380355834961",
        "longitude": "147.22000122070312",
        "altitude": "146",
        "timezone": "10",
        "dst": "U",
        "tz_database_time_zone": "Pacific/Port_Moresby",
        "type": "airport",
        "source": "OurAirports"
    },
    {
        "id": "6",
        "nome": "Wewak International Airport",
        "cidade": "Wewak",
        "pais": "Papua New Guinea",
        "iata": "WWK",
        "icao": "AYWK",
        "latitude": "-3.58383011818",
        "longitude": "143.669006348",
        "altitude": "19",
        "timezone": "10",
        "dst": "U",
        "tz_database_time_zone": "Pacific/Port_Moresby",
        "type": "airport",
        "source": "OurAirports"
    },
    {
        "id": "7",
        "nome": "Narsarsuaq Airport",
        "cidade": "Narssarssuaq",
        "pais": "Greenland",
        "iata": "UAK",
        "icao": "BGBW",
        "latitude": "61.1604995728",
        "longitude": "-45.4259986877",
        "altitude": "112",
        "timezone": "-3",
        "dst": "E",
        "tz_database_time_zone": "America/Godthab",
        "type": "airport",
        "source": "OurAirports"
    },
    {
        "id": "8",
        "nome": "Godthaab / Nuuk Airport",
        "cidade": "Godthaab",
        "pais": "Greenland",
        "iata": "GOH",
        "icao": "BGGH",
        "latitude": "64.19090271",
        "longitude": "-51.6781005859",
        "altitude": "283",
        "timezone": "-3",
        "dst": "E",
        "tz_database_time_zone": "America/Godthab",
        "type": "airport",
        "source": "OurAirports"
    },
    {
        "id": "9",
        "nome": "Kangerlussuaq Airport",
        "cidade": "Sondrestrom",
        "pais": "Greenland",
        "iata": "SFJ",
        "icao": "BGSF",
        "latitude": "67.0122218992",
        "longitude": "-50.7116031647",
        "altitude": "165",
        "timezone": "-3",
        "dst": "E",
        "tz_database_time_zone": "America/Godthab",
        "type": "airport",
        "source": "OurAirports"
    },
    {
        "id": "10",
        "nome": "Thule Air Base",
        "cidade": "Thule",
        "pais": "Greenland",
        "iata": "THU",
        "icao": "BGTL",
        "latitude": "76.5311965942",
        "longitude": "-68.7032012939",
        "altitude": "251",
        "timezone": "-4",
        "dst": "E",
        "tz_database_time_zone": "America/Thule",
        "type": "airport",
        "source": "OurAirports"
    },
    {
        "id": "11",
        "nome": "Akureyri Airport",
        "cidade": "Akureyri",
        "pais": "Iceland",
        "iata": "AEY",
        "icao": "BIAR",
        "latitude": "65.66000366210938",
        "longitude": "-18.07270050048828",
        "altitude": "6",
        "timezone": "0",
        "dst": "N",
        "tz_database_time_zone": "Atlantic/Reykjavik",
        "type": "airport",
        "source": "OurAirports"
    },
    {
        "id": "12",
        "nome": "Egilsstaðir Airport",
        "cidade": "Egilsstadir",
        "pais": "Iceland",
        "iata": "EGS",
        "icao": "BIEG",
        "latitude": "65.2833023071289",
        "longitude": "-14.401399612426758",
        "altitude": "76",
        "timezone": "0",
        "dst": "N",
        "tz_database_time_zone": "Atlantic/Reykjavik",
        "type": "airport",
        "source": "OurAirports"
    },
    {
        "id": "13",
        "nome": "Hornafjörður Airport",
        "cidade": "Hofn",
        "pais": "Iceland",
        "iata": "HFN",
        "icao": "BIHN",
        "latitude": "64.295601",
        "longitude": "-15.2272",
        "altitude": "24",
        "timezone": "0",
        "dst": "N",
        "tz_database_time_zone": "Atlantic/Reykjavik",
        "type": "airport",
        "source": "OurAirports"
    },
    {
        "id": "14",
        "nome": "Húsavík Airport",
        "cidade": "Husavik",
        "pais": "Iceland",
        "iata": "HZK",
        "icao": "BIHU",
        "latitude": "65.952301",
        "longitude": "-17.426001",
        "altitude": "48",
        "timezone": "0",
        "dst": "N",
        "tz_database_time_zone": "Atlantic/Reykjavik",
        "type": "airport",
        "source": "OurAirports"
    },
    {
        "id": "15",
        "nome": "Ísafjörður Airport",
        "cidade": "Isafjordur",
        "pais": "Iceland",
        "iata": "IFJ",
        "icao": "BIIS",
        "latitude": "66.05809783935547",
        "longitude": "-23.135299682617188",
        "altitude": "8",
        "timezone": "0",
        "dst": "N",
        "tz_database_time_zone": "Atlantic/Reykjavik",
        "type": "airport",
        "source": "OurAirports"
    },
    {
        "id": "16",
        "nome": "Keflavik International Airport",
        "cidade": "Keflavik",
        "pais": "Iceland",
        "iata": "KEF",
        "icao": "BIKF",
        "latitude": "63.985000610352",
        "longitude": "-22.605600357056",
        "altitude": "171",
        "timezone": "0",
        "dst": "N",
        "tz_database_time_zone": "Atlantic/Reykjavik",
        "type": "airport",
        "source": "OurAirports"
    },
    {
        "id": "17",
        "nome": "Patreksfjörður Airport",
        "cidade": "Patreksfjordur",
        "pais": "Iceland",
        "iata": "PFJ",
        "icao": "BIPA",
        "latitude": "65.555801",
        "longitude": "-23.965",
        "altitude": "11",
        "timezone": "0",
        "dst": "N",
        "tz_database_time_zone": "Atlantic/Reykjavik",
        "type": "airport",
        "source": "OurAirports"
    },
    {
        "id": "18",
        "nome": "Reykjavik Airport",
        "cidade": "Reykjavik",
        "pais": "Iceland",
        "iata": "RKV",
        "icao": "BIRK",
        "latitude": "64.1299972534",
        "longitude": "-21.9405994415",
        "altitude": "48",
        "timezone": "0",
        "dst": "N",
        "tz_database_time_zone": "Atlantic/Reykjavik",
        "type": "airport",
        "source": "OurAirports"
    },
    {
        "id": "19",
        "nome": "Siglufjörður Airport",
        "cidade": "Siglufjordur",
        "pais": "Iceland",
        "iata": "SIJ",
        "icao": "BISI",
        "latitude": "66.133301",
        "longitude": "-18.9167",
        "altitude": "10",
        "timezone": "0",
        "dst": "N",
        "tz_database_time_zone": "Atlantic/Reykjavik",
        "type": "airport",
        "source": "OurAirports"
    },
    {
        "id": "20",
        "nome": "Vestmannaeyjar Airport",
        "cidade": "Vestmannaeyjar",
        "pais": "Iceland",
        "iata": "VEY",
        "icao": "BIVM",
        "latitude": "63.42430114746094",
        "longitude": "-20.278900146484375",
        "altitude": "326",
        "timezone": "0",
        "dst": "N",
        "tz_database_time_zone": "Atlantic/Reykjavik",
        "type": "airport",
        "source": "OurAirports"
    },
    {
        "id": "21",
        "nome": "Sault Ste Marie Airport",
        "cidade": "Sault Sainte Marie",
        "pais": "Canada",
        "iata": "YAM",
        "icao": "CYAM",
        "latitude": "46.48500061035156",
        "longitude": "-84.5093994140625",
        "altitude": "630",
        "timezone": "-5",
        "dst": "A",
        "tz_database_time_zone": "America/Toronto",
        "type": "airport",
        "source": "OurAirports"
    },
    {
        "id": "22",
        "nome": "Winnipeg / St. Andrews Airport",
        "cidade": "Winnipeg",
        "pais": "Canada",
        "iata": "\\N",
        "icao": "CYAV",
        "latitude": "50.0564002991",
        "longitude": "-97.03250122070001",
        "altitude": "760",
        "timezone": "-6",
        "dst": "A",
        "tz_database_time_zone": "America/Winnipeg",
        "type": "airport",
        "source": "OurAirports"
    },
    {
        "id": "23",
        "nome": "Halifax / CFB Shearwater Heliport",
        "cidade": "Halifax",
        "pais": "Canada",
        "iata": "\\N",
        "icao": "CYAW",
        "latitude": "44.639702",
        "longitude": "-63.499401",
        "altitude": "144",
        "timezone": "-4",
        "dst": "A",
        "tz_database_time_zone": "America/Halifax",
        "type": "airport",
        "source": "OurAirports"
    },
    {
        "id": "24",
        "nome": "St. Anthony Airport",
        "cidade": "St. Anthony",
        "pais": "Canada",
        "iata": "YAY",
        "icao": "CYAY",
        "latitude": "51.3918991089",
        "longitude": "-56.083099365200006",
        "altitude": "108",
        "timezone": "-3.5",
        "dst": "A",
        "tz_database_time_zone": "America/St_Johns",
        "type": "airport",
        "source": "OurAirports"
    },
    {
        "id": "25",
        "nome": "Tofino / Long Beach Airport",
        "cidade": "Tofino",
        "pais": "Canada",
        "iata": "YAZ",
        "icao": "CYAZ",
        "latitude": "49.079833",
        "longitude": "-125.775583",
        "altitude": "80",
        "timezone": "-8",
        "dst": "A",
        "tz_database_time_zone": "America/Vancouver",
        "type": "airport",
        "source": "OurAirports"
    },
    {
        "id": "26",
        "nome": "Kugaaruk Airport",
        "cidade": "Pelly Bay",
        "pais": "Canada",
        "iata": "YBB",
        "icao": "CYBB",
        "latitude": "68.534401",
        "longitude": "-89.808098",
        "altitude": "56",
        "timezone": "-7",
        "dst": "A",
        "tz_database_time_zone": "America/Edmonton",
        "type": "airport",
        "source": "OurAirports"
    },
    {
        "id": "27",
        "nome": "Baie Comeau Airport",
        "cidade": "Baie Comeau",
        "pais": "Canada",
        "iata": "YBC",
        "icao": "CYBC",
        "latitude": "49.13249969482422",
        "longitude": "-68.20439910888672",
        "altitude": "71",
        "timezone": "-5",
        "dst": "A",
        "tz_database_time_zone": "America/Toronto",
        "type": "airport",
        "source": "OurAirports"
    },
    {
        "id": "28",
        "nome": "CFB Bagotville",
        "cidade": "Bagotville",
        "pais": "Canada",
        "iata": "YBG",
        "icao": "CYBG",
        "latitude": "48.33060073852539",
        "longitude": "-70.99639892578125",
        "altitude": "522",
        "timezone": "-5",
        "dst": "A",
        "tz_database_time_zone": "America/Toronto",
        "type": "airport",
        "source": "OurAirports"
    },
    {
        "id": "29",
        "nome": "Baker Lake Airport",
        "cidade": "Baker Lake",
        "pais": "Canada",
        "iata": "YBK",
        "icao": "CYBK",
        "latitude": "64.29889678960001",
        "longitude": "-96.077796936",
        "altitude": "59",
        "timezone": "-6",
        "dst": "A",
        "tz_database_time_zone": "America/Winnipeg",
        "type": "airport",
        "source": "OurAirports"
    },
    {
        "id": "30",
        "nome": "Campbell River Airport",
        "cidade": "Campbell River",
        "pais": "Canada",
        "iata": "YBL",
        "icao": "CYBL",
        "latitude": "49.950801849365234",
        "longitude": "-125.27100372314453",
        "altitude": "346",
        "timezone": "-8",
        "dst": "A",
        "tz_database_time_zone": "America/Vancouver",
        "type": "airport",
        "source": "OurAirports"
    },
    {
        "id": "31",
        "nome": "Brandon Municipal Airport",
        "cidade": "Brandon",
        "pais": "Canada",
        "iata": "YBR",
        "icao": "CYBR",
        "latitude": "49.91",
        "longitude": "-99.951897",
        "altitude": "1343",
        "timezone": "-6",
        "dst": "A",
        "tz_database_time_zone": "America/Winnipeg",
        "type": "airport",
        "source": "OurAirports"
    },
    {
        "id": "32",
        "nome": "Cambridge Bay Airport",
        "cidade": "Cambridge Bay",
        "pais": "Canada",
        "iata": "YCB",
        "icao": "CYCB",
        "latitude": "69.1081008911",
        "longitude": "-105.138000488",
        "altitude": "90",
        "timezone": "-7",
        "dst": "A",
        "tz_database_time_zone": "America/Edmonton",
        "type": "airport",
        "source": "OurAirports"
    },
    {
        "id": "33",
        "nome": "Nanaimo Airport",
        "cidade": "Nanaimo",
        "pais": "Canada",
        "iata": "YCD",
        "icao": "CYCD",
        "latitude": "49.054970224899996",
        "longitude": "-123.869862556",
        "altitude": "92",
        "timezone": "-8",
        "dst": "A",
        "tz_database_time_zone": "America/Vancouver",
        "type": "airport",
        "source": "OurAirports"
    },
    {
        "id": "34",
        "nome": "Castlegar/West Kootenay Regional Airport",
        "cidade": "Castlegar",
        "pais": "Canada",
        "iata": "YCG",
        "icao": "CYCG",
        "latitude": "49.2963981628",
        "longitude": "-117.632003784",
        "altitude": "1624",
        "timezone": "-8",
        "dst": "A",
        "tz_database_time_zone": "America/Vancouver",
        "type": "airport",
        "source": "OurAirports"
    },
    {
        "id": "35",
        "nome": "Miramichi Airport",
        "cidade": "Chatham",
        "pais": "Canada",
        "iata": "YCH",
        "icao": "CYCH",
        "latitude": "47.007801",
        "longitude": "-65.449203",
        "altitude": "108",
        "timezone": "-4",
        "dst": "A",
        "tz_database_time_zone": "America/Halifax",
        "type": "airport",
        "source": "OurAirports"
    },
    {
        "id": "36",
        "nome": "Charlo Airport",
        "cidade": "Charlo",
        "pais": "Canada",
        "iata": "YCL",
        "icao": "CYCL",
        "latitude": "47.990799",
        "longitude": "-66.330299",
        "altitude": "132",
        "timezone": "-4",
        "dst": "A",
        "tz_database_time_zone": "America/Halifax",
        "type": "airport",
        "source": "OurAirports"
    },
    {
        "id": "37",
        "nome": "Kugluktuk Airport",
        "cidade": "Coppermine",
        "pais": "Canada",
        "iata": "YCO",
        "icao": "CYCO",
        "latitude": "67.816704",
        "longitude": "-115.143997",
        "altitude": "74",
        "timezone": "-7",
        "dst": "A",
        "tz_database_time_zone": "America/Edmonton",
        "type": "airport",
        "source": "OurAirports"
    },
    {
        "id": "38",
        "nome": "Coronation Airport",
        "cidade": "Coronation",
        "pais": "Canada",
        "iata": "YCT",
        "icao": "CYCT",
        "latitude": "52.0750007629",
        "longitude": "-111.444999695",
        "altitude": "2595",
        "timezone": "-7",
        "dst": "A",
        "tz_database_time_zone": "America/Edmonton",
        "type": "airport",
        "source": "OurAirports"
    },
    {
        "id": "39",
        "nome": "Chilliwack Airport",
        "cidade": "Chilliwack",
        "pais": "Canada",
        "iata": "YCW",
        "icao": "CYCW",
        "latitude": "49.1528015137",
        "longitude": "-121.939002991",
        "altitude": "32",
        "timezone": "-8",
        "dst": "A",
        "tz_database_time_zone": "America/Vancouver",
        "type": "airport",
        "source": "OurAirports"
    },
    {
        "id": "40",
        "nome": "Clyde River Airport",
        "cidade": "Clyde River",
        "pais": "Canada",
        "iata": "YCY",
        "icao": "CYCY",
        "latitude": "70.4860992432",
        "longitude": "-68.5167007446",
        "altitude": "87",
        "timezone": "-5",
        "dst": "A",
        "tz_database_time_zone": "America/Toronto",
        "type": "airport",
        "source": "OurAirports"
    },
    {
        "id": "41",
        "nome": "Coral Harbour Airport",
        "cidade": "Coral Harbour",
        "pais": "Canada",
        "iata": "YZS",
        "icao": "CYZS",
        "latitude": "64.1932983398",
        "longitude": "-83.3593978882",
        "altitude": "210",
        "timezone": "-5",
        "dst": "A",
        "tz_database_time_zone": "America/Coral_Harbour",
        "type": "airport",
        "source": "OurAirports"
    },
    {
        "id": "42",
        "nome": "Dawson City Airport",
        "cidade": "Dawson",
        "pais": "Canada",
        "iata": "YDA",
        "icao": "CYDA",
        "latitude": "64.04309844970703",
        "longitude": "-139.1280059814453",
        "altitude": "1215",
        "timezone": "-8",
        "dst": "A",
        "tz_database_time_zone": "America/Vancouver",
        "type": "airport",
        "source": "OurAirports"
    },
    {
        "id": "43",
        "nome": "Burwash Airport",
        "cidade": "Burwash",
        "pais": "Canada",
        "iata": "YDB",
        "icao": "CYDB",
        "latitude": "61.37110137939453",
        "longitude": "-139.04100036621094",
        "altitude": "2647",
        "timezone": "-8",
        "dst": "A",
        "tz_database_time_zone": "America/Vancouver",
        "type": "airport",
        "source": "OurAirports"
    },
    {
        "id": "44",
        "nome": "Princeton Airport",
        "cidade": "Princeton",
        "pais": "Canada",
        "iata": "\\N",
        "icao": "CYDC",
        "latitude": "49.4681015015",
        "longitude": "-120.511001587",
        "altitude": "2298",
        "timezone": "-8",
        "dst": "A",
        "tz_database_time_zone": "America/Vancouver",
        "type": "airport",
        "source": "OurAirports"
    },
    {
        "id": "45",
        "nome": "Deer Lake Airport",
        "cidade": "Deer Lake",
        "pais": "Canada",
        "iata": "YDF",
        "icao": "CYDF",
        "latitude": "49.21080017089844",
        "longitude": "-57.39139938354492",
        "altitude": "72",
        "timezone": "-3.5",
        "dst": "A",
        "tz_database_time_zone": "America/St_Johns",
        "type": "airport",
        "source": "OurAirports"
    },
    {
        "id": "46",
        "nome": "Dease Lake Airport",
        "cidade": "Dease Lake",
        "pais": "Canada",
        "iata": "YDL",
        "icao": "CYDL",
        "latitude": "58.4221992493",
        "longitude": "-130.031997681",
        "altitude": "2600",
        "timezone": "-8",
        "dst": "A",
        "tz_database_time_zone": "America/Vancouver",
        "type": "airport",
        "source": "OurAirports"
    },
    {
        "id": "47",
        "nome": "Dauphin Barker Airport",
        "cidade": "Dauphin",
        "pais": "Canada",
        "iata": "YDN",
        "icao": "CYDN",
        "latitude": "51.100799560546875",
        "longitude": "-100.052001953125",
        "altitude": "999",
        "timezone": "-6",
        "dst": "A",
        "tz_database_time_zone": "America/Winnipeg",
        "type": "airport",
        "source": "OurAirports"
    },
    {
        "id": "48",
        "nome": "Dawson Creek Airport",
        "cidade": "Dawson Creek",
        "pais": "Canada",
        "iata": "YDQ",
        "icao": "CYDQ",
        "latitude": "55.7422981262207",
        "longitude": "-120.18299865722656",
        "altitude": "2148",
        "timezone": "-7",
        "dst": "A",
        "tz_database_time_zone": "America/Dawson_Creek",
        "type": "airport",
        "source": "OurAirports"
    },
    {
        "id": "49",
        "nome": "Edmonton International Airport",
        "cidade": "Edmonton",
        "pais": "Canada",
        "iata": "YEG",
        "icao": "CYEG",
        "latitude": "53.309700012200004",
        "longitude": "-113.580001831",
        "altitude": "2373",
        "timezone": "-7",
        "dst": "A",
        "tz_database_time_zone": "America/Edmonton",
        "type": "airport",
        "source": "OurAirports"
    },
    {
        "id": "50",
        "nome": "Arviat Airport",
        "cidade": "Eskimo Point",
        "pais": "Canada",
        "iata": "YEK",
        "icao": "CYEK",
        "latitude": "61.0942001343",
        "longitude": "-94.07080078119999",
        "altitude": "32",
        "timezone": "-6",
        "dst": "A",
        "tz_database_time_zone": "America/Winnipeg",
        "type": "airport",
        "source": "OurAirports"
    },
    {
        "id": "51",
        "nome": "Estevan Airport",
        "cidade": "Estevan",
        "pais": "Canada",
        "iata": "YEN",
        "icao": "CYEN",
        "latitude": "49.2103004456",
        "longitude": "-102.966003418",
        "altitude": "1905",
        "timezone": "-6",
        "dst": "N",
        "tz_database_time_zone": "America/Regina",
        "type": "airport",
        "source": "OurAirports"
    },
    {
        "id": "52",
        "nome": "Edson Airport",
        "cidade": "Edson",
        "pais": "Canada",
        "iata": "YET",
        "icao": "CYET",
        "latitude": "53.578899383499994",
        "longitude": "-116.464996338",
        "altitude": "3043",
        "timezone": "-7",
        "dst": "A",
        "tz_database_time_zone": "America/Edmonton",
        "type": "airport",
        "source": "OurAirports"
    },
    {
        "id": "53",
        "nome": "Eureka Airport",
        "cidade": "Eureka",
        "pais": "Canada",
        "iata": "YEU",
        "icao": "CYEU",
        "latitude": "79.9946975708",
        "longitude": "-85.814201355",
        "altitude": "256",
        "timezone": "-6",
        "dst": "A",
        "tz_database_time_zone": "America/Winnipeg",
        "type": "airport",
        "source": "OurAirports"
    },
    {
        "id": "54",
        "nome": "Inuvik Mike Zubko Airport",
        "cidade": "Inuvik",
        "pais": "Canada",
        "iata": "YEV",
        "icao": "CYEV",
        "latitude": "68.30419921880001",
        "longitude": "-133.483001709",
        "altitude": "224",
        "timezone": "-7",
        "dst": "A",
        "tz_database_time_zone": "America/Edmonton",
        "type": "airport",
        "source": "OurAirports"
    },
    {
        "id": "55",
        "nome": "Iqaluit Airport",
        "cidade": "Iqaluit",
        "pais": "Canada",
        "iata": "YFB",
        "icao": "CYFB",
        "latitude": "63.756402",
        "longitude": "-68.555801",
        "altitude": "110",
        "timezone": "-5",
        "dst": "A",
        "tz_database_time_zone": "America/Toronto",
        "type": "airport",
        "source": "OurAirports"
    },
    {
        "id": "56",
        "nome": "Fredericton Airport",
        "cidade": "Fredericton",
        "pais": "Canada",
        "iata": "YFC",
        "icao": "CYFC",
        "latitude": "45.868900299072266",
        "longitude": "-66.53720092773438",
        "altitude": "68",
        "timezone": "-4",
        "dst": "A",
        "tz_database_time_zone": "America/Halifax",
        "type": "airport",
        "source": "OurAirports"
    },
    {
        "id": "57",
        "nome": "Forestville Airport",
        "cidade": "Forestville",
        "pais": "Canada",
        "iata": "YFE",
        "icao": "CYFE",
        "latitude": "48.74610137939453",
        "longitude": "-69.09719848632812",
        "altitude": "293",
        "timezone": "-5",
        "dst": "A",
        "tz_database_time_zone": "America/Toronto",
        "type": "airport",
        "source": "OurAirports"
    },
    {
        "id": "58",
        "nome": "Flin Flon Airport",
        "cidade": "Flin Flon",
        "pais": "Canada",
        "iata": "YFO",
        "icao": "CYFO",
        "latitude": "54.6781005859375",
        "longitude": "-101.68199920654297",
        "altitude": "997",
        "timezone": "-6",
        "dst": "A",
        "tz_database_time_zone": "America/Winnipeg",
        "type": "airport",
        "source": "OurAirports"
    },
    {
        "id": "59",
        "nome": "Fort Resolution Airport",
        "cidade": "Fort Resolution",
        "pais": "Canada",
        "iata": "YFR",
        "icao": "CYFR",
        "latitude": "61.1808013916",
        "longitude": "-113.690002441",
        "altitude": "526",
        "timezone": "-7",
        "dst": "A",
        "tz_database_time_zone": "America/Edmonton",
        "type": "airport",
        "source": "OurAirports"
    },
    {
        "id": "60",
        "nome": "Fort Simpson Airport",
        "cidade": "Fort Simpson",
        "pais": "Canada",
        "iata": "YFS",
        "icao": "CYFS",
        "latitude": "61.76020050048828",
        "longitude": "-121.23699951171875",
        "altitude": "555",
        "timezone": "-7",
        "dst": "A",
        "tz_database_time_zone": "America/Edmonton",
        "type": "airport",
        "source": "OurAirports"
    },
    {
        "id": "61",
        "nome": "Kingston Norman Rogers Airport",
        "cidade": "Kingston",
        "pais": "Canada",
        "iata": "YGK",
        "icao": "CYGK",
        "latitude": "44.22529983520508",
        "longitude": "-76.5969009399414",
        "altitude": "305",
        "timezone": "-5",
        "dst": "A",
        "tz_database_time_zone": "America/Toronto",
        "type": "airport",
        "source": "OurAirports"
    },
    {
        "id": "62",
        "nome": "La Grande Rivière Airport",
        "cidade": "La Grande Riviere",
        "pais": "Canada",
        "iata": "YGL",
        "icao": "CYGL",
        "latitude": "53.625301361083984",
        "longitude": "-77.7042007446289",
        "altitude": "639",
        "timezone": "-5",
        "dst": "A",
        "tz_database_time_zone": "America/Toronto",
        "type": "airport",
        "source": "OurAirports"
    },
    {
        "id": "63",
        "nome": "Gaspé (Michel-Pouliot) Airport",
        "cidade": "Gaspe",
        "pais": "Canada",
        "iata": "YGP",
        "icao": "CYGP",
        "latitude": "48.7752990723",
        "longitude": "-64.4785995483",
        "altitude": "112",
        "timezone": "-5",
        "dst": "A",
        "tz_database_time_zone": "America/Toronto",
        "type": "airport",
        "source": "OurAirports"
    },
    {
        "id": "64",
        "nome": "Geraldton Greenstone Regional Airport",
        "cidade": "Geraldton",
        "pais": "Canada",
        "iata": "YGQ",
        "icao": "CYGQ",
        "latitude": "49.77830123901367",
        "longitude": "-86.93939971923828",
        "altitude": "1144",
        "timezone": "-5",
        "dst": "A",
        "tz_database_time_zone": "America/Toronto",
        "type": "airport",
        "source": "OurAirports"
    },
    {
        "id": "65",
        "nome": "Îles-de-la-Madeleine Airport",
        "cidade": "Iles De La Madeleine",
        "pais": "Canada",
        "iata": "YGR",
        "icao": "CYGR",
        "latitude": "47.42470169067383",
        "longitude": "-61.778099060058594",
        "altitude": "35",
        "timezone": "-5",
        "dst": "A",
        "tz_database_time_zone": "America/Toronto",
        "type": "airport",
        "source": "OurAirports"
    },
    {
        "id": "66",
        "nome": "Hudson Bay Airport",
        "cidade": "Hudson Bay",
        "pais": "Canada",
        "iata": "YHB",
        "icao": "CYHB",
        "latitude": "52.8166999817",
        "longitude": "-102.310997009",
        "altitude": "1175",
        "timezone": "-6",
        "dst": "N",
        "tz_database_time_zone": "America/Regina",
        "type": "airport",
        "source": "OurAirports"
    },
    {
        "id": "67",
        "nome": "Dryden Regional Airport",
        "cidade": "Dryden",
        "pais": "Canada",
        "iata": "YHD",
        "icao": "CYHD",
        "latitude": "49.831699",
        "longitude": "-92.744202",
        "altitude": "1354",
        "timezone": "-6",
        "dst": "A",
        "tz_database_time_zone": "America/Winnipeg",
        "type": "airport",
        "source": "OurAirports"
    },
    {
        "id": "68",
        "nome": "Ulukhaktok Holman Airport",
        "cidade": "Holman Island",
        "pais": "Canada",
        "iata": "YHI",
        "icao": "CYHI",
        "latitude": "70.76280212402344",
        "longitude": "-117.80599975585938",
        "altitude": "117",
        "timezone": "-7",
        "dst": "A",
        "tz_database_time_zone": "America/Edmonton",
        "type": "airport",
        "source": "OurAirports"
    },
    {
        "id": "69",
        "nome": "Gjoa Haven Airport",
        "cidade": "Gjoa Haven",
        "pais": "Canada",
        "iata": "YHK",
        "icao": "CYHK",
        "latitude": "68.635597229",
        "longitude": "-95.84970092770001",
        "altitude": "152",
        "timezone": "-7",
        "dst": "A",
        "tz_database_time_zone": "America/Edmonton",
        "type": "airport",
        "source": "OurAirports"
    },
    {
        "id": "70",
        "nome": "John C. Munro Hamilton International Airport",
        "cidade": "Hamilton",
        "pais": "Canada",
        "iata": "YHM",
        "icao": "CYHM",
        "latitude": "43.173599243199995",
        "longitude": "-79.93499755859999",
        "altitude": "780",
        "timezone": "-5",
        "dst": "A",
        "tz_database_time_zone": "America/Toronto",
        "type": "airport",
        "source": "OurAirports"
    },
    {
        "id": "71",
        "nome": "Montréal / Saint-Hubert Airport",
        "cidade": "Montreal",
        "pais": "Canada",
        "iata": "YHU",
        "icao": "CYHU",
        "latitude": "45.5175018311",
        "longitude": "-73.4169006348",
        "altitude": "90",
        "timezone": "-5",
        "dst": "A",
        "tz_database_time_zone": "America/Toronto",
        "type": "airport",
        "source": "OurAirports"
    },
    {
        "id": "72",
        "nome": "Hay River / Merlyn Carter Airport",
        "cidade": "Hay River",
        "pais": "Canada",
        "iata": "YHY",
        "icao": "CYHY",
        "latitude": "60.8396987915",
        "longitude": "-115.782997131",
        "altitude": "541",
        "timezone": "-7",
        "dst": "A",
        "tz_database_time_zone": "America/Edmonton",
        "type": "airport",
        "source": "OurAirports"
    },
    {
        "id": "73",
        "nome": "Halifax / Stanfield International Airport",
        "cidade": "Halifax",
        "pais": "Canada",
        "iata": "YHZ",
        "icao": "CYHZ",
        "latitude": "44.8807983398",
        "longitude": "-63.5085983276",
        "altitude": "477",
        "timezone": "-4",
        "dst": "A",
        "tz_database_time_zone": "America/Halifax",
        "type": "airport",
        "source": "OurAirports"
    },
    {
        "id": "74",
        "nome": "Atikokan Municipal Airport",
        "cidade": "Atikokan",
        "pais": "Canada",
        "iata": "YIB",
        "icao": "CYIB",
        "latitude": "48.7738990784",
        "longitude": "-91.6386032104",
        "altitude": "1408",
        "timezone": "-5",
        "dst": "A",
        "tz_database_time_zone": "America/Coral_Harbour",
        "type": "airport",
        "source": "OurAirports"
    },
    {
        "id": "75",
        "nome": "Pond Inlet Airport",
        "cidade": "Pond Inlet",
        "pais": "Canada",
        "iata": "YIO",
        "icao": "CYIO",
        "latitude": "72.6832962036",
        "longitude": "-77.9666976929",
        "altitude": "181",
        "timezone": "-5",
        "dst": "A",
        "tz_database_time_zone": "America/Toronto",
        "type": "airport",
        "source": "OurAirports"
    },
    {
        "id": "76",
        "nome": "St Jean Airport",
        "cidade": "St. Jean",
        "pais": "Canada",
        "iata": "YJN",
        "icao": "CYJN",
        "latitude": "45.29439926147461",
        "longitude": "-73.28109741210938",
        "altitude": "136",
        "timezone": "-5",
        "dst": "A",
        "tz_database_time_zone": "America/Toronto",
        "type": "airport",
        "source": "OurAirports"
    },
    {
        "id": "77",
        "nome": "Stephenville Airport",
        "cidade": "Stephenville",
        "pais": "Canada",
        "iata": "YJT",
        "icao": "CYJT",
        "latitude": "48.5442008972168",
        "longitude": "-58.54999923706055",
        "altitude": "84",
        "timezone": "-3.5",
        "dst": "A",
        "tz_database_time_zone": "America/St_Johns",
        "type": "airport",
        "source": "OurAirports"
    },
    {
        "id": "78",
        "nome": "Kamloops Airport",
        "cidade": "Kamloops",
        "pais": "Canada",
        "iata": "YKA",
        "icao": "CYKA",
        "latitude": "50.7022018433",
        "longitude": "-120.444000244",
        "altitude": "1133",
        "timezone": "-8",
        "dst": "A",
        "tz_database_time_zone": "America/Vancouver",
        "type": "airport",
        "source": "OurAirports"
    },
    {
        "id": "79",
        "nome": "Waterloo Airport",
        "cidade": "Waterloo",
        "pais": "Canada",
        "iata": "YKF",
        "icao": "CYKF",
        "latitude": "43.460800170899994",
        "longitude": "-80.3786010742",
        "altitude": "1055",
        "timezone": "-5",
        "dst": "A",
        "tz_database_time_zone": "America/Toronto",
        "type": "airport",
        "source": "OurAirports"
    },
    {
        "id": "80",
        "nome": "Schefferville Airport",
        "cidade": "Schefferville",
        "pais": "Canada",
        "iata": "YKL",
        "icao": "CYKL",
        "latitude": "54.805301666259766",
        "longitude": "-66.8052978515625",
        "altitude": "1709",
        "timezone": "-5",
        "dst": "A",
        "tz_database_time_zone": "America/Toronto",
        "type": "airport",
        "source": "OurAirports"
    },
    {
        "id": "81",
        "nome": "Kindersley Airport",
        "cidade": "Kindersley",
        "pais": "Canada",
        "iata": "YKY",
        "icao": "CYKY",
        "latitude": "51.5175018311",
        "longitude": "-109.180999756",
        "altitude": "2277",
        "timezone": "-6",
        "dst": "N",
        "tz_database_time_zone": "America/Regina",
        "type": "airport",
        "source": "OurAirports"
    },
    {
        "id": "82",
        "nome": "Buttonville Municipal Airport",
        "cidade": "Toronto",
        "pais": "Canada",
        "iata": "YKZ",
        "icao": "CYKZ",
        "latitude": "43.86220169067383",
        "longitude": "-79.37000274658203",
        "altitude": "650",
        "timezone": "-5",
        "dst": "A",
        "tz_database_time_zone": "America/Toronto",
        "type": "airport",
        "source": "OurAirports"
    },
    {
        "id": "83",
        "nome": "Chapleau Airport",
        "cidade": "Chapleau",
        "pais": "Canada",
        "iata": "YLD",
        "icao": "CYLD",
        "latitude": "47.81999969482422",
        "longitude": "-83.3467025756836",
        "altitude": "1470",
        "timezone": "-5",
        "dst": "A",
        "tz_database_time_zone": "America/Toronto",
        "type": "airport",
        "source": "OurAirports"
    },
    {
        "id": "84",
        "nome": "Meadow Lake Airport",
        "cidade": "Meadow Lake",
        "pais": "Canada",
        "iata": "YLJ",
        "icao": "CYLJ",
        "latitude": "54.125301361083984",
        "longitude": "-108.52300262451172",
        "altitude": "1576",
        "timezone": "-6",
        "dst": "N",
        "tz_database_time_zone": "America/Regina",
        "type": "airport",
        "source": "OurAirports"
    },
    {
        "id": "85",
        "nome": "Lloydminster Airport",
        "cidade": "Lloydminster",
        "pais": "Canada",
        "iata": "YLL",
        "icao": "CYLL",
        "latitude": "53.309200286865234",
        "longitude": "-110.072998046875",
        "altitude": "2193",
        "timezone": "-7",
        "dst": "A",
        "tz_database_time_zone": "America/Edmonton",
        "type": "airport",
        "source": "OurAirports"
    },
    {
        "id": "86",
        "nome": "Alert Airport",
        "cidade": "Alert",
        "pais": "Canada",
        "iata": "YLT",
        "icao": "CYLT",
        "latitude": "82.51779937740001",
        "longitude": "-62.2806015015",
        "altitude": "100",
        "timezone": "-5",
        "dst": "A",
        "tz_database_time_zone": "America/Toronto",
        "type": "airport",
        "source": "OurAirports"
    },
    {
        "id": "87",
        "nome": "Kelowna International Airport",
        "cidade": "Kelowna",
        "pais": "Canada",
        "iata": "YLW",
        "icao": "CYLW",
        "latitude": "49.9561004639",
        "longitude": "-119.377998352",
        "altitude": "1421",
        "timezone": "-8",
        "dst": "A",
        "tz_database_time_zone": "America/Vancouver",
        "type": "airport",
        "source": "OurAirports"
    },
    {
        "id": "88",
        "nome": "Mayo Airport",
        "cidade": "Mayo",
        "pais": "Canada",
        "iata": "YMA",
        "icao": "CYMA",
        "latitude": "63.61640167236328",
        "longitude": "-135.8679962158203",
        "altitude": "1653",
        "timezone": "-8",
        "dst": "A",
        "tz_database_time_zone": "America/Vancouver",
        "type": "airport",
        "source": "OurAirports"
    },
    {
        "id": "89",
        "nome": "Moose Jaw Air Vice Marshal C. M. McEwen Airport",
        "cidade": "Moose Jaw",
        "pais": "Canada",
        "iata": "YMJ",
        "icao": "CYMJ",
        "latitude": "50.330299377441406",
        "longitude": "-105.55899810791016",
        "altitude": "1892",
        "timezone": "-6",
        "dst": "N",
        "tz_database_time_zone": "America/Regina",
        "type": "airport",
        "source": "OurAirports"
    },
    {
        "id": "90",
        "nome": "Fort McMurray Airport",
        "cidade": "Fort Mcmurray",
        "pais": "Canada",
        "iata": "YMM",
        "icao": "CYMM",
        "latitude": "56.653301239",
        "longitude": "-111.222000122",
        "altitude": "1211",
        "timezone": "-7",
        "dst": "A",
        "tz_database_time_zone": "America/Edmonton",
        "type": "airport",
        "source": "OurAirports"
    },
    {
        "id": "91",
        "nome": "Moosonee Airport",
        "cidade": "Moosonee",
        "pais": "Canada",
        "iata": "YMO",
        "icao": "CYMO",
        "latitude": "51.291099548339844",
        "longitude": "-80.60780334472656",
        "altitude": "30",
        "timezone": "-5",
        "dst": "A",
        "tz_database_time_zone": "America/Toronto",
        "type": "airport",
        "source": "OurAirports"
    },
    {
        "id": "92",
        "nome": "Maniwaki Airport",
        "cidade": "Maniwaki",
        "pais": "Canada",
        "iata": "YMW",
        "icao": "CYMW",
        "latitude": "46.2728004456",
        "longitude": "-75.9906005859",
        "altitude": "656",
        "timezone": "-5",
        "dst": "A",
        "tz_database_time_zone": "America/Toronto",
        "type": "airport",
        "source": "OurAirports"
    },
    {
        "id": "93",
        "nome": "Montreal International (Mirabel) Airport",
        "cidade": "Montreal",
        "pais": "Canada",
        "iata": "YMX",
        "icao": "CYMX",
        "latitude": "45.679501",
        "longitude": "-74.038696",
        "altitude": "270",
        "timezone": "-5",
        "dst": "A",
        "tz_database_time_zone": "America/Toronto",
        "type": "airport",
        "source": "OurAirports"
    },
    {
        "id": "94",
        "nome": "Natashquan Airport",
        "cidade": "Natashquan",
        "pais": "Canada",
        "iata": "YNA",
        "icao": "CYNA",
        "latitude": "50.189998626708984",
        "longitude": "-61.78919982910156",
        "altitude": "39",
        "timezone": "-5",
        "dst": "A",
        "tz_database_time_zone": "America/Toronto",
        "type": "airport",
        "source": "OurAirports"
    },
    {
        "id": "95",
        "nome": "Ottawa / Gatineau Airport",
        "cidade": "Gatineau",
        "pais": "Canada",
        "iata": "YND",
        "icao": "CYND",
        "latitude": "45.521701812699995",
        "longitude": "-75.5635986328",
        "altitude": "211",
        "timezone": "-5",
        "dst": "A",
        "tz_database_time_zone": "America/Toronto",
        "type": "airport",
        "source": "OurAirports"
    },
    {
        "id": "96",
        "nome": "Matagami Airport",
        "cidade": "Matagami",
        "pais": "Canada",
        "iata": "YNM",
        "icao": "CYNM",
        "latitude": "49.76169967651367",
        "longitude": "-77.80280303955078",
        "altitude": "918",
        "timezone": "-5",
        "dst": "A",
        "tz_database_time_zone": "America/Toronto",
        "type": "airport",
        "source": "OurAirports"
    },
    {
        "id": "97",
        "nome": "Old Crow Airport",
        "cidade": "Old Crow",
        "pais": "Canada",
        "iata": "YOC",
        "icao": "CYOC",
        "latitude": "67.57060241699219",
        "longitude": "-139.83900451660156",
        "altitude": "824",
        "timezone": "-8",
        "dst": "A",
        "tz_database_time_zone": "America/Vancouver",
        "type": "airport",
        "source": "OurAirports"
    },
    {
        "id": "98",
        "nome": "CFB Cold Lake",
        "cidade": "Cold Lake",
        "pais": "Canada",
        "iata": "YOD",
        "icao": "CYOD",
        "latitude": "54.404998779296875",
        "longitude": "-110.27899932861328",
        "altitude": "1775",
        "timezone": "-7",
        "dst": "A",
        "tz_database_time_zone": "America/Edmonton",
        "type": "airport",
        "source": "OurAirports"
    },
    {
        "id": "99",
        "nome": "High Level Airport",
        "cidade": "High Level",
        "pais": "Canada",
        "iata": "YOJ",
        "icao": "CYOJ",
        "latitude": "58.62139892578125",
        "longitude": "-117.16500091552734",
        "altitude": "1110",
        "timezone": "-7",
        "dst": "A",
        "tz_database_time_zone": "America/Edmonton",
        "type": "airport",
        "source": "OurAirports"
    },
    {
        "id": "100",
        "nome": "Ottawa Macdonald-Cartier International Airport",
        "cidade": "Ottawa",
        "pais": "Canada",
        "iata": "YOW",
        "icao": "CYOW",
        "latitude": "45.3224983215332",
        "longitude": "-75.66919708251953",
        "altitude": "374",
        "timezone": "-5",
        "dst": "A",
        "tz_database_time_zone": "America/Toronto",
        "type": "airport",
        "source": "OurAirports"
    },
    {
        "id": "101",
        "nome": "Prince Albert Glass Field",
        "cidade": "Prince Albert",
        "pais": "Canada",
        "iata": "YPA",
        "icao": "CYPA",
        "latitude": "53.214199066199996",
        "longitude": "-105.672996521",
        "altitude": "1405",
        "timezone": "-6",
        "dst": "N",
        "tz_database_time_zone": "America/Regina",
        "type": "airport",
        "source": "OurAirports"
    },
    {
        "id": "102",
        "nome": "Peace River Airport",
        "cidade": "Peace River",
        "pais": "Canada",
        "iata": "YPE",
        "icao": "CYPE",
        "latitude": "56.226898",
        "longitude": "-117.446999",
        "altitude": "1873",
        "timezone": "-7",
        "dst": "A",
        "tz_database_time_zone": "America/Edmonton",
        "type": "airport",
        "source": "OurAirports"
    },
    {
        "id": "103",
        "nome": "Southport Airport",
        "cidade": "Portage-la-prairie",
        "pais": "Canada",
        "iata": "YPG",
        "icao": "CYPG",
        "latitude": "49.903099",
        "longitude": "-98.273817",
        "altitude": "885",
        "timezone": "-6",
        "dst": "A",
        "tz_database_time_zone": "America/Winnipeg",
        "type": "airport",
        "source": "OurAirports"
    },
    {
        "id": "104",
        "nome": "Pitt Meadows Airport",
        "cidade": "Pitt Meadows",
        "pais": "Canada",
        "iata": "\\N",
        "icao": "CYPK",
        "latitude": "49.21609878540039",
        "longitude": "-122.70999908447266",
        "altitude": "11",
        "timezone": "-8",
        "dst": "A",
        "tz_database_time_zone": "America/Vancouver",
        "type": "airport",
        "source": "OurAirports"
    },
    {
        "id": "105",
        "nome": "Pickle Lake Airport",
        "cidade": "Pickle Lake",
        "pais": "Canada",
        "iata": "YPL",
        "icao": "CYPL",
        "latitude": "51.4463996887207",
        "longitude": "-90.21420288085938",
        "altitude": "1267",
        "timezone": "-5",
        "dst": "A",
        "tz_database_time_zone": "America/Coral_Harbour",
        "type": "airport",
        "source": "OurAirports"
    },
    {
        "id": "106",
        "nome": "Port Menier Airport",
        "cidade": "Port Menier",
        "pais": "Canada",
        "iata": "YPN",
        "icao": "CYPN",
        "latitude": "49.83639907836914",
        "longitude": "-64.2885971069336",
        "altitude": "167",
        "timezone": "-5",
        "dst": "A",
        "tz_database_time_zone": "America/Toronto",
        "type": "airport",
        "source": "OurAirports"
    },
    {
        "id": "107",
        "nome": "Peterborough Airport",
        "cidade": "Peterborough",
        "pais": "Canada",
        "iata": "YPQ",
        "icao": "CYPQ",
        "latitude": "44.22999954223633",
        "longitude": "-78.36329650878906",
        "altitude": "628",
        "timezone": "-5",
        "dst": "A",
        "tz_database_time_zone": "America/Toronto",
        "type": "airport",
        "source": "OurAirports"
    },
    {
        "id": "108",
        "nome": "Prince Rupert Airport",
        "cidade": "Prince Pupert",
        "pais": "Canada",
        "iata": "YPR",
        "icao": "CYPR",
        "latitude": "54.286098480199996",
        "longitude": "-130.445007324",
        "altitude": "116",
        "timezone": "-8",
        "dst": "A",
        "tz_database_time_zone": "America/Vancouver",
        "type": "airport",
        "source": "OurAirports"
    },
    {
        "id": "109",
        "nome": "Fort Chipewyan Airport",
        "cidade": "Fort Chipewyan",
        "pais": "Canada",
        "iata": "YPY",
        "icao": "CYPY",
        "latitude": "58.7672004699707",
        "longitude": "-111.11699676513672",
        "altitude": "761",
        "timezone": "-7",
        "dst": "A",
        "tz_database_time_zone": "America/Edmonton",
        "type": "airport",
        "source": "OurAirports"
    },
    {
        "id": "110",
        "nome": "Muskoka Airport",
        "cidade": "Muskoka",
        "pais": "Canada",
        "iata": "YQA",
        "icao": "CYQA",
        "latitude": "44.974700927734375",
        "longitude": "-79.30329895019531",
        "altitude": "925",
        "timezone": "-5",
        "dst": "A",
        "tz_database_time_zone": "America/Toronto",
        "type": "airport",
        "source": "OurAirports"
    },
    {
        "id": "111",
        "nome": "Quebec Jean Lesage International Airport",
        "cidade": "Quebec",
        "pais": "Canada",
        "iata": "YQB",
        "icao": "CYQB",
        "latitude": "46.7911",
        "longitude": "-71.393303",
        "altitude": "244",
        "timezone": "-5",
        "dst": "A",
        "tz_database_time_zone": "America/Toronto",
        "type": "airport",
        "source": "OurAirports"
    },
    {
        "id": "112",
        "nome": "Red Deer Regional Airport",
        "cidade": "Red Deer Industrial",
        "pais": "Canada",
        "iata": "YQF",
        "icao": "CYQF",
        "latitude": "52.18220138549805",
        "longitude": "-113.89399719238281",
        "altitude": "2968",
        "timezone": "-7",
        "dst": "A",
        "tz_database_time_zone": "America/Edmonton",
        "type": "airport",
        "source": "OurAirports"
    },
    {
        "id": "113",
        "nome": "Windsor Airport",
        "cidade": "Windsor",
        "pais": "Canada",
        "iata": "YQG",
        "icao": "CYQG",
        "latitude": "42.27560043334961",
        "longitude": "-82.95559692382812",
        "altitude": "622",
        "timezone": "-5",
        "dst": "A",
        "tz_database_time_zone": "America/Toronto",
        "type": "airport",
        "source": "OurAirports"
    },
    {
        "id": "114",
        "nome": "Watson Lake Airport",
        "cidade": "Watson Lake",
        "pais": "Canada",
        "iata": "YQH",
        "icao": "CYQH",
        "latitude": "60.11640167236328",
        "longitude": "-128.82200622558594",
        "altitude": "2255",
        "timezone": "-8",
        "dst": "A",
        "tz_database_time_zone": "America/Vancouver",
        "type": "airport",
        "source": "OurAirports"
    },
    {
        "id": "115",
        "nome": "Kenora Airport",
        "cidade": "Kenora",
        "pais": "Canada",
        "iata": "YQK",
        "icao": "CYQK",
        "latitude": "49.788299560546875",
        "longitude": "-94.36309814453125",
        "altitude": "1332",
        "timezone": "-6",
        "dst": "A",
        "tz_database_time_zone": "America/Winnipeg",
        "type": "airport",
        "source": "OurAirports"
    },
    {
        "id": "116",
        "nome": "Lethbridge County Airport",
        "cidade": "Lethbridge",
        "pais": "Canada",
        "iata": "YQL",
        "icao": "CYQL",
        "latitude": "49.6302986145",
        "longitude": "-112.800003052",
        "altitude": "3048",
        "timezone": "-7",
        "dst": "A",
        "tz_database_time_zone": "America/Edmonton",
        "type": "airport",
        "source": "OurAirports"
    },
    {
        "id": "117",
        "nome": "Greater Moncton International Airport",
        "cidade": "Moncton",
        "pais": "Canada",
        "iata": "YQM",
        "icao": "CYQM",
        "latitude": "46.11220169067383",
        "longitude": "-64.67859649658203",
        "altitude": "232",
        "timezone": "-4",
        "dst": "A",
        "tz_database_time_zone": "America/Halifax",
        "type": "airport",
        "source": "OurAirports"
    },
    {
        "id": "119",
        "nome": "Comox Airport",
        "cidade": "Comox",
        "pais": "Canada",
        "iata": "YQQ",
        "icao": "CYQQ",
        "latitude": "49.71080017089844",
        "longitude": "-124.88700103759766",
        "altitude": "84",
        "timezone": "-8",
        "dst": "A",
        "tz_database_time_zone": "America/Vancouver",
        "type": "airport",
        "source": "OurAirports"
    },
    {
        "id": "120",
        "nome": "Regina International Airport",
        "cidade": "Regina",
        "pais": "Canada",
        "iata": "YQR",
        "icao": "CYQR",
        "latitude": "50.43190002441406",
        "longitude": "-104.66600036621094",
        "altitude": "1894",
        "timezone": "-6",
        "dst": "N",
        "tz_database_time_zone": "America/Regina",
        "type": "airport",
        "source": "OurAirports"
    },
    {
        "id": "121",
        "nome": "Thunder Bay Airport",
        "cidade": "Thunder Bay",
        "pais": "Canada",
        "iata": "YQT",
        "icao": "CYQT",
        "latitude": "48.37189865112305",
        "longitude": "-89.32389831542969",
        "altitude": "653",
        "timezone": "-5",
        "dst": "A",
        "tz_database_time_zone": "America/Toronto",
        "type": "airport",
        "source": "OurAirports"
    },
    {
        "id": "122",
        "nome": "Grande Prairie Airport",
        "cidade": "Grande Prairie",
        "pais": "Canada",
        "iata": "YQU",
        "icao": "CYQU",
        "latitude": "55.1796989441",
        "longitude": "-118.885002136",
        "altitude": "2195",
        "timezone": "-7",
        "dst": "A",
        "tz_database_time_zone": "America/Edmonton",
        "type": "airport",
        "source": "OurAirports"
    },
    {
        "id": "123",
        "nome": "Yorkton Municipal Airport",
        "cidade": "Yorkton",
        "pais": "Canada",
        "iata": "YQV",
        "icao": "CYQV",
        "latitude": "51.26470184326172",
        "longitude": "-102.46199798583984",
        "altitude": "1635",
        "timezone": "-6",
        "dst": "N",
        "tz_database_time_zone": "America/Regina",
        "type": "airport",
        "source": "OurAirports"
    },
    {
        "id": "124",
        "nome": "North Battleford Airport",
        "cidade": "North Battleford",
        "pais": "Canada",
        "iata": "YQW",
        "icao": "CYQW",
        "latitude": "52.76919937133789",
        "longitude": "-108.24400329589844",
        "altitude": "1799",
        "timezone": "-6",
        "dst": "N",
        "tz_database_time_zone": "America/Regina",
        "type": "airport",
        "source": "OurAirports"
    },
    {
        "id": "125",
        "nome": "Gander International Airport",
        "cidade": "Gander",
        "pais": "Canada",
        "iata": "YQX",
        "icao": "CYQX",
        "latitude": "48.9369010925293",
        "longitude": "-54.56809997558594",
        "altitude": "496",
        "timezone": "-3.5",
        "dst": "A",
        "tz_database_time_zone": "America/St_Johns",
        "type": "airport",
        "source": "OurAirports"
    },
    {
        "id": "126",
        "nome": "Sydney / J.A. Douglas McCurdy Airport",
        "cidade": "Sydney",
        "pais": "Canada",
        "iata": "YQY",
        "icao": "CYQY",
        "latitude": "46.1614",
        "longitude": "-60.047798",
        "altitude": "203",
        "timezone": "-4",
        "dst": "A",
        "tz_database_time_zone": "America/Halifax",
        "type": "airport",
        "source": "OurAirports"
    },
    {
        "id": "127",
        "nome": "Quesnel Airport",
        "cidade": "Quesnel",
        "pais": "Canada",
        "iata": "YQZ",
        "icao": "CYQZ",
        "latitude": "53.026100158691406",
        "longitude": "-122.51000213623047",
        "altitude": "1789",
        "timezone": "-8",
        "dst": "A",
        "tz_database_time_zone": "America/Vancouver",
        "type": "airport",
        "source": "OurAirports"
    },
    {
        "id": "128",
        "nome": "Resolute Bay Airport",
        "cidade": "Resolute",
        "pais": "Canada",
        "iata": "YRB",
        "icao": "CYRB",
        "latitude": "74.7169036865",
        "longitude": "-94.9693984985",
        "altitude": "215",
        "timezone": "-6",
        "dst": "A",
        "tz_database_time_zone": "America/Winnipeg",
        "type": "airport",
        "source": "OurAirports"
    },
    {
        "id": "129",
        "nome": "Rivière-du-Loup Airport",
        "cidade": "Riviere Du Loup",
        "pais": "Canada",
        "iata": "YRI",
        "icao": "CYRI",
        "latitude": "47.764400482177734",
        "longitude": "-69.58470153808594",
        "altitude": "427",
        "timezone": "-5",
        "dst": "A",
        "tz_database_time_zone": "America/Toronto",
        "type": "airport",
        "source": "OurAirports"
    },
    {
        "id": "130",
        "nome": "Roberval Airport",
        "cidade": "Roberval",
        "pais": "Canada",
        "iata": "YRJ",
        "icao": "CYRJ",
        "latitude": "48.52000045776367",
        "longitude": "-72.2656021118164",
        "altitude": "586",
        "timezone": "-5",
        "dst": "A",
        "tz_database_time_zone": "America/Toronto",
        "type": "airport",
        "source": "OurAirports"
    },
    {
        "id": "131",
        "nome": "Rocky Mountain House Airport",
        "cidade": "Rocky Mountain House",
        "pais": "Canada",
        "iata": "YRM",
        "icao": "CYRM",
        "latitude": "52.4296989441",
        "longitude": "-114.903999329",
        "altitude": "3244",
        "timezone": "-7",
        "dst": "A",
        "tz_database_time_zone": "America/Edmonton",
        "type": "airport",
        "source": "OurAirports"
    },
    {
        "id": "132",
        "nome": "Rankin Inlet Airport",
        "cidade": "Rankin Inlet",
        "pais": "Canada",
        "iata": "YRT",
        "icao": "CYRT",
        "latitude": "62.8114013672",
        "longitude": "-92.1157989502",
        "altitude": "94",
        "timezone": "-6",
        "dst": "A",
        "tz_database_time_zone": "America/Winnipeg",
        "type": "airport",
        "source": "OurAirports"
    },
    {
        "id": "133",
        "nome": "Sudbury Airport",
        "cidade": "Sudbury",
        "pais": "Canada",
        "iata": "YSB",
        "icao": "CYSB",
        "latitude": "46.625",
        "longitude": "-80.79889678955078",
        "altitude": "1141",
        "timezone": "-5",
        "dst": "A",
        "tz_database_time_zone": "America/Toronto",
        "type": "airport",
        "source": "OurAirports"
    },
    {
        "id": "134",
        "nome": "Sherbrooke Airport",
        "cidade": "Sherbrooke",
        "pais": "Canada",
        "iata": "YSC",
        "icao": "CYSC",
        "latitude": "45.4385986328125",
        "longitude": "-71.69139862060547",
        "altitude": "792",
        "timezone": "-5",
        "dst": "A",
        "tz_database_time_zone": "America/Toronto",
        "type": "airport",
        "source": "OurAirports"
    },
    {
        "id": "135",
        "nome": "Saint John Airport",
        "cidade": "St. John",
        "pais": "Canada",
        "iata": "YSJ",
        "icao": "CYSJ",
        "latitude": "45.31610107421875",
        "longitude": "-65.89029693603516",
        "altitude": "357",
        "timezone": "-4",
        "dst": "A",
        "tz_database_time_zone": "America/Halifax",
        "type": "airport",
        "source": "OurAirports"
    },
    {
        "id": "136",
        "nome": "Fort Smith Airport",
        "cidade": "Fort Smith",
        "pais": "Canada",
        "iata": "YSM",
        "icao": "CYSM",
        "latitude": "60.020301818847656",
        "longitude": "-111.96199798583984",
        "altitude": "671",
        "timezone": "-7",
        "dst": "A",
        "tz_database_time_zone": "America/Edmonton",
        "type": "airport",
        "source": "OurAirports"
    },
    {
        "id": "137",
        "nome": "Nanisivik Airport",
        "cidade": "Nanisivik",
        "pais": "Canada",
        "iata": "YSR",
        "icao": "CYSR",
        "latitude": "72.982201",
        "longitude": "-84.613602",
        "altitude": "2106",
        "timezone": "-5",
        "dst": "A",
        "tz_database_time_zone": "America/Toronto",
        "type": "airport",
        "source": "OurAirports"
    },
    {
        "id": "138",
        "nome": "Summerside Airport",
        "cidade": "Summerside",
        "pais": "Canada",
        "iata": "YSU",
        "icao": "CYSU",
        "latitude": "46.44060134887695",
        "longitude": "-63.83359909057617",
        "altitude": "56",
        "timezone": "-4",
        "dst": "A",
        "tz_database_time_zone": "America/Halifax",
        "type": "airport",
        "source": "OurAirports"
    },
    {
        "id": "139",
        "nome": "Sachs Harbour (David Nasogaluak Jr. Saaryuaq) Airport",
        "cidade": "Sachs Harbour",
        "pais": "Canada",
        "iata": "YSY",
        "icao": "CYSY",
        "latitude": "71.9938964844",
        "longitude": "-125.242996216",
        "altitude": "282",
        "timezone": "-7",
        "dst": "A",
        "tz_database_time_zone": "America/Edmonton",
        "type": "airport",
        "source": "OurAirports"
    },
    {
        "id": "140",
        "nome": "Cape Dorset Airport",
        "cidade": "Cape Dorset",
        "pais": "Canada",
        "iata": "YTE",
        "icao": "CYTE",
        "latitude": "64.2300033569",
        "longitude": "-76.5267028809",
        "altitude": "164",
        "timezone": "-5",
        "dst": "A",
        "tz_database_time_zone": "America/Toronto",
        "type": "airport",
        "source": "OurAirports"
    },
    {
        "id": "141",
        "nome": "Thompson Airport",
        "cidade": "Thompson",
        "pais": "Canada",
        "iata": "YTH",
        "icao": "CYTH",
        "latitude": "55.80110168457031",
        "longitude": "-97.86419677734375",
        "altitude": "729",
        "timezone": "-6",
        "dst": "A",
        "tz_database_time_zone": "America/Winnipeg",
        "type": "airport",
        "source": "OurAirports"
    },
    {
        "id": "142",
        "nome": "CFB Trenton",
        "cidade": "Trenton",
        "pais": "Canada",
        "iata": "YTR",
        "icao": "CYTR",
        "latitude": "44.118900299072266",
        "longitude": "-77.5280990600586",
        "altitude": "283",
        "timezone": "-5",
        "dst": "A",
        "tz_database_time_zone": "America/Toronto",
        "type": "airport",
        "source": "OurAirports"
    },
    {
        "id": "143",
        "nome": "Timmins/Victor M. Power",
        "cidade": "Timmins",
        "pais": "Canada",
        "iata": "YTS",
        "icao": "CYTS",
        "latitude": "48.569698333699996",
        "longitude": "-81.376701355",
        "altitude": "967",
        "timezone": "-5",
        "dst": "A",
        "tz_database_time_zone": "America/Toronto",
        "type": "airport",
        "source": "OurAirports"
    },
    {
        "id": "144",
        "nome": "Billy Bishop Toronto City Centre Airport",
        "cidade": "Toronto",
        "pais": "Canada",
        "iata": "YTZ",
        "icao": "CYTZ",
        "latitude": "43.627499",
        "longitude": "-79.396202",
        "altitude": "252",
        "timezone": "-5",
        "dst": "A",
        "tz_database_time_zone": "America/Toronto",
        "type": "airport",
        "source": "OurAirports"
    },
    {
        "id": "145",
        "nome": "Tuktoyaktuk Airport",
        "cidade": "Tuktoyaktuk",
        "pais": "Canada",
        "iata": "YUB",
        "icao": "CYUB",
        "latitude": "69.43329620361328",
        "longitude": "-133.0260009765625",
        "altitude": "15",
        "timezone": "-7",
        "dst": "A",
        "tz_database_time_zone": "America/Edmonton",
        "type": "airport",
        "source": "OurAirports"
    },
    {
        "id": "146",
        "nome": "Montreal / Pierre Elliott Trudeau International Airport",
        "cidade": "Montreal",
        "pais": "Canada",
        "iata": "YUL",
        "icao": "CYUL",
        "latitude": "45.4706001282",
        "longitude": "-73.7407989502",
        "altitude": "118",
        "timezone": "-5",
        "dst": "A",
        "tz_database_time_zone": "America/Toronto",
        "type": "airport",
        "source": "OurAirports"
    },
    {
        "id": "147",
        "nome": "Repulse Bay Airport",
        "cidade": "Repulse Bay",
        "pais": "Canada",
        "iata": "YUT",
        "icao": "CYUT",
        "latitude": "66.5214004517",
        "longitude": "-86.22470092770001",
        "altitude": "80",
        "timezone": "-6",
        "dst": "A",
        "tz_database_time_zone": "America/Winnipeg",
        "type": "airport",
        "source": "OurAirports"
    },
    {
        "id": "148",
        "nome": "Hall Beach Airport",
        "cidade": "Hall Beach",
        "pais": "Canada",
        "iata": "YUX",
        "icao": "CYUX",
        "latitude": "68.77610015869999",
        "longitude": "-81.2425",
        "altitude": "30",
        "timezone": "-5",
        "dst": "A",
        "tz_database_time_zone": "America/Toronto",
        "type": "airport",
        "source": "OurAirports"
    },
    {
        "id": "149",
        "nome": "Rouyn Noranda Airport",
        "cidade": "Rouyn",
        "pais": "Canada",
        "iata": "YUY",
        "icao": "CYUY",
        "latitude": "48.20610046386719",
        "longitude": "-78.83560180664062",
        "altitude": "988",
        "timezone": "-5",
        "dst": "A",
        "tz_database_time_zone": "America/Toronto",
        "type": "airport",
        "source": "OurAirports"
    },
    {
        "id": "150",
        "nome": "La Ronge Airport",
        "cidade": "La Ronge",
        "pais": "Canada",
        "iata": "YVC",
        "icao": "CYVC",
        "latitude": "55.151401519800004",
        "longitude": "-105.262001038",
        "altitude": "1242",
        "timezone": "-6",
        "dst": "N",
        "tz_database_time_zone": "America/Regina",
        "type": "airport",
        "source": "OurAirports"
    },
    {
        "id": "151",
        "nome": "Vermilion Airport",
        "cidade": "Vermillion",
        "pais": "Canada",
        "iata": "YVG",
        "icao": "CYVG",
        "latitude": "53.355800628699996",
        "longitude": "-110.823997498",
        "altitude": "2025",
        "timezone": "-7",
        "dst": "A",
        "tz_database_time_zone": "America/Edmonton",
        "type": "airport",
        "source": "OurAirports"
    },
    {
        "id": "152",
        "nome": "Qikiqtarjuaq Airport",
        "cidade": "Broughton Island",
        "pais": "Canada",
        "iata": "YVM",
        "icao": "CYVM",
        "latitude": "67.5457992554",
        "longitude": "-64.03140258789999",
        "altitude": "21",
        "timezone": "-5",
        "dst": "A",
        "tz_database_time_zone": "America/Toronto",
        "type": "airport",
        "source": "OurAirports"
    },
    {
        "id": "153",
        "nome": "Val-d'Or Airport",
        "cidade": "Val D'or",
        "pais": "Canada",
        "iata": "YVO",
        "icao": "CYVO",
        "latitude": "48.0532989502",
        "longitude": "-77.7827987671",
        "altitude": "1107",
        "timezone": "-5",
        "dst": "A",
        "tz_database_time_zone": "America/Toronto",
        "type": "airport",
        "source": "OurAirports"
    },
    {
        "id": "154",
        "nome": "Kuujjuaq Airport",
        "cidade": "Quujjuaq",
        "pais": "Canada",
        "iata": "YVP",
        "icao": "CYVP",
        "latitude": "58.096099853515625",
        "longitude": "-68.4269027709961",
        "altitude": "129",
        "timezone": "-5",
        "dst": "A",
        "tz_database_time_zone": "America/Toronto",
        "type": "airport",
        "source": "OurAirports"
    },
    {
        "id": "155",
        "nome": "Norman Wells Airport",
        "cidade": "Norman Wells",
        "pais": "Canada",
        "iata": "YVQ",
        "icao": "CYVQ",
        "latitude": "65.28160095214844",
        "longitude": "-126.7979965209961",
        "altitude": "238",
        "timezone": "-7",
        "dst": "A",
        "tz_database_time_zone": "America/Edmonton",
        "type": "airport",
        "source": "OurAirports"
    },
    {
        "id": "156",
        "nome": "Vancouver International Airport",
        "cidade": "Vancouver",
        "pais": "Canada",
        "iata": "YVR",
        "icao": "CYVR",
        "latitude": "49.193901062",
        "longitude": "-123.183998108",
        "altitude": "14",
        "timezone": "-8",
        "dst": "A",
        "tz_database_time_zone": "America/Vancouver",
        "type": "airport",
        "source": "OurAirports"
    },
    {
        "id": "157",
        "nome": "Buffalo Narrows Airport",
        "cidade": "Buffalo Narrows",
        "pais": "Canada",
        "iata": "YVT",
        "icao": "CYVT",
        "latitude": "55.8418998718",
        "longitude": "-108.417999268",
        "altitude": "1423",
        "timezone": "-6",
        "dst": "N",
        "tz_database_time_zone": "America/Regina",
        "type": "airport",
        "source": "OurAirports"
    },
    {
        "id": "158",
        "nome": "Wiarton Airport",
        "cidade": "Wiarton",
        "pais": "Canada",
        "iata": "YVV",
        "icao": "CYVV",
        "latitude": "44.7458",
        "longitude": "-81.107201",
        "altitude": "729",
        "timezone": "-5",
        "dst": "A",
        "tz_database_time_zone": "America/Toronto",
        "type": "airport",
        "source": "OurAirports"
    },
    {
        "id": "159",
        "nome": "Petawawa Airport",
        "cidade": "Petawawa",
        "pais": "Canada",
        "iata": "YWA",
        "icao": "CYWA",
        "latitude": "45.95220184326172",
        "longitude": "-77.31919860839844",
        "altitude": "427",
        "timezone": "-5",
        "dst": "A",
        "tz_database_time_zone": "America/Toronto",
        "type": "airport",
        "source": "OurAirports"
    },
    {
        "id": "160",
        "nome": "Winnipeg / James Armstrong Richardson International Airport",
        "cidade": "Winnipeg",
        "pais": "Canada",
        "iata": "YWG",
        "icao": "CYWG",
        "latitude": "49.909999847399995",
        "longitude": "-97.2398986816",
        "altitude": "783",
        "timezone": "-6",
        "dst": "A",
        "tz_database_time_zone": "America/Winnipeg",
        "type": "airport",
        "source": "OurAirports"
    },
    {
        "id": "161",
        "nome": "Wabush Airport",
        "cidade": "Wabush",
        "pais": "Canada",
        "iata": "YWK",
        "icao": "CYWK",
        "latitude": "52.92190170288086",
        "longitude": "-66.8644027709961",
        "altitude": "1808",
        "timezone": "-4",
        "dst": "A",
        "tz_database_time_zone": "America/Halifax",
        "type": "airport",
        "source": "OurAirports"
    },
    {
        "id": "162",
        "nome": "Williams Lake Airport",
        "cidade": "Williams Lake",
        "pais": "Canada",
        "iata": "YWL",
        "icao": "CYWL",
        "latitude": "52.1831016541",
        "longitude": "-122.054000854",
        "altitude": "3085",
        "timezone": "-8",
        "dst": "A",
        "tz_database_time_zone": "America/Vancouver",
        "type": "airport",
        "source": "OurAirports"
    },
    {
        "id": "163",
        "nome": "Wrigley Airport",
        "cidade": "Wrigley",
        "pais": "Canada",
        "iata": "YWY",
        "icao": "CYWY",
        "latitude": "63.20940017700195",
        "longitude": "-123.43699645996094",
        "altitude": "489",
        "timezone": "-7",
        "dst": "A",
        "tz_database_time_zone": "America/Edmonton",
        "type": "airport",
        "source": "OurAirports"
    },
    {
        "id": "164",
        "nome": "Cranbrook/Canadian Rockies International Airport",
        "cidade": "Cranbrook",
        "pais": "Canada",
        "iata": "YXC",
        "icao": "CYXC",
        "latitude": "49.610801696777",
        "longitude": "-115.78199768066",
        "altitude": "3082",
        "timezone": "-7",
        "dst": "A",
        "tz_database_time_zone": "America/Edmonton",
        "type": "airport",
        "source": "OurAirports"
    },
    {
        "id": "165",
        "nome": "Edmonton City Centre (Blatchford Field) Airport",
        "cidade": "Edmonton",
        "pais": "Canada",
        "iata": "YXD",
        "icao": "CYXD",
        "latitude": "53.5724983215",
        "longitude": "-113.521003723",
        "altitude": "2202",
        "timezone": "-7",
        "dst": "A",
        "tz_database_time_zone": "America/Edmonton",
        "type": "airport",
        "source": "OurAirports"
    },
    {
        "id": "166",
        "nome": "Saskatoon John G. Diefenbaker International Airport",
        "cidade": "Saskatoon",
        "pais": "Canada",
        "iata": "YXE",
        "icao": "CYXE",
        "latitude": "52.170799255371094",
        "longitude": "-106.69999694824219",
        "altitude": "1653",
        "timezone": "-6",
        "dst": "N",
        "tz_database_time_zone": "America/Regina",
        "type": "airport",
        "source": "OurAirports"
    },
    {
        "id": "167",
        "nome": "Medicine Hat Airport",
        "cidade": "Medicine Hat",
        "pais": "Canada",
        "iata": "YXH",
        "icao": "CYXH",
        "latitude": "50.01890182495117",
        "longitude": "-110.72100067138672",
        "altitude": "2352",
        "timezone": "-7",
        "dst": "A",
        "tz_database_time_zone": "America/Edmonton",
        "type": "airport",
        "source": "OurAirports"
    },
    {
        "id": "168",
        "nome": "Fort St John Airport",
        "cidade": "Fort Saint John",
        "pais": "Canada",
        "iata": "YXJ",
        "icao": "CYXJ",
        "latitude": "56.23809814453125",
        "longitude": "-120.73999786376953",
        "altitude": "2280",
        "timezone": "-7",
        "dst": "A",
        "tz_database_time_zone": "America/Dawson_Creek",
        "type": "airport",
        "source": "OurAirports"
    },
    {
        "id": "169",
        "nome": "Sioux Lookout Airport",
        "cidade": "Sioux Lookout",
        "pais": "Canada",
        "iata": "YXL",
        "icao": "CYXL",
        "latitude": "50.11389923095703",
        "longitude": "-91.9052963256836",
        "altitude": "1258",
        "timezone": "-6",
        "dst": "A",
        "tz_database_time_zone": "America/Winnipeg",
        "type": "airport",
        "source": "OurAirports"
    },
    {
        "id": "170",
        "nome": "Pangnirtung Airport",
        "cidade": "Pangnirtung",
        "pais": "Canada",
        "iata": "YXP",
        "icao": "CYXP",
        "latitude": "66.1449966431",
        "longitude": "-65.71360015869999",
        "altitude": "75",
        "timezone": "-5",
        "dst": "A",
        "tz_database_time_zone": "America/Toronto",
        "type": "airport",
        "source": "OurAirports"
    },
    {
        "id": "171",
        "nome": "Earlton (Timiskaming Regional) Airport",
        "cidade": "Earlton",
        "pais": "Canada",
        "iata": "YXR",
        "icao": "CYXR",
        "latitude": "47.697400654599996",
        "longitude": "-79.8473453522",
        "altitude": "800",
        "timezone": "-5",
        "dst": "A",
        "tz_database_time_zone": "America/Toronto",
        "type": "airport",
        "source": "OurAirports"
    },
    {
        "id": "172",
        "nome": "Prince George Airport",
        "cidade": "Prince George",
        "pais": "Canada",
        "iata": "YXS",
        "icao": "CYXS",
        "latitude": "53.8894004822",
        "longitude": "-122.679000854",
        "altitude": "2267",
        "timezone": "-8",
        "dst": "A",
        "tz_database_time_zone": "America/Vancouver",
        "type": "airport",
        "source": "OurAirports"
    },
    {
        "id": "173",
        "nome": "Northwest Regional Airport Terrace-Kitimat",
        "cidade": "Terrace",
        "pais": "Canada",
        "iata": "YXT",
        "icao": "CYXT",
        "latitude": "54.468498",
        "longitude": "-128.576009",
        "altitude": "713",
        "timezone": "-8",
        "dst": "A",
        "tz_database_time_zone": "America/Vancouver",
        "type": "airport",
        "source": "OurAirports"
    },
    {
        "id": "174",
        "nome": "London Airport",
        "cidade": "London",
        "pais": "Canada",
        "iata": "YXU",
        "icao": "CYXU",
        "latitude": "43.035599",
        "longitude": "-81.1539",
        "altitude": "912",
        "timezone": "-5",
        "dst": "A",
        "tz_database_time_zone": "America/Toronto",
        "type": "airport",
        "source": "OurAirports"
    },
    {
        "id": "175",
        "nome": "Abbotsford Airport",
        "cidade": "Abbotsford",
        "pais": "Canada",
        "iata": "YXX",
        "icao": "CYXX",
        "latitude": "49.025299072265625",
        "longitude": "-122.36100006103516",
        "altitude": "195",
        "timezone": "-8",
        "dst": "A",
        "tz_database_time_zone": "America/Vancouver",
        "type": "airport",
        "source": "OurAirports"
    },
    {
        "id": "176",
        "nome": "Whitehorse / Erik Nielsen International Airport",
        "cidade": "Whitehorse",
        "pais": "Canada",
        "iata": "YXY",
        "icao": "CYXY",
        "latitude": "60.7095985413",
        "longitude": "-135.067001343",
        "altitude": "2317",
        "timezone": "-8",
        "dst": "A",
        "tz_database_time_zone": "America/Vancouver",
        "type": "airport",
        "source": "OurAirports"
    },
    {
        "id": "177",
        "nome": "North Bay Jack Garland Airport",
        "cidade": "North Bay",
        "pais": "Canada",
        "iata": "YYB",
        "icao": "CYYB",
        "latitude": "46.363602",
        "longitude": "-79.422798",
        "altitude": "1215",
        "timezone": "-5",
        "dst": "A",
        "tz_database_time_zone": "America/Toronto",
        "type": "airport",
        "source": "OurAirports"
    },
    {
        "id": "178",
        "nome": "Calgary International Airport",
        "cidade": "Calgary",
        "pais": "Canada",
        "iata": "YYC",
        "icao": "CYYC",
        "latitude": "51.113899231",
        "longitude": "-114.019996643",
        "altitude": "3557",
        "timezone": "-7",
        "dst": "A",
        "tz_database_time_zone": "America/Edmonton",
        "type": "airport",
        "source": "OurAirports"
    },
    {
        "id": "179",
        "nome": "Smithers Airport",
        "cidade": "Smithers",
        "pais": "Canada",
        "iata": "YYD",
        "icao": "CYYD",
        "latitude": "54.82469940185547",
        "longitude": "-127.18299865722656",
        "altitude": "1712",
        "timezone": "-8",
        "dst": "A",
        "tz_database_time_zone": "America/Vancouver",
        "type": "airport",
        "source": "OurAirports"
    },
    {
        "id": "180",
        "nome": "Fort Nelson Airport",
        "cidade": "Fort Nelson",
        "pais": "Canada",
        "iata": "YYE",
        "icao": "CYYE",
        "latitude": "58.8363990784",
        "longitude": "-122.597000122",
        "altitude": "1253",
        "timezone": "-8",
        "dst": "A",
        "tz_database_time_zone": "America/Vancouver",
        "type": "airport",
        "source": "OurAirports"
    },
    {
        "id": "181",
        "nome": "Penticton Airport",
        "cidade": "Penticton",
        "pais": "Canada",
        "iata": "YYF",
        "icao": "CYYF",
        "latitude": "49.46310043334961",
        "longitude": "-119.60199737548828",
        "altitude": "1129",
        "timezone": "-8",
        "dst": "A",
        "tz_database_time_zone": "America/Vancouver",
        "type": "airport",
        "source": "OurAirports"
    },
    {
        "id": "182",
        "nome": "Charlottetown Airport",
        "cidade": "Charlottetown",
        "pais": "Canada",
        "iata": "YYG",
        "icao": "CYYG",
        "latitude": "46.290000915527344",
        "longitude": "-63.12110137939453",
        "altitude": "160",
        "timezone": "-4",
        "dst": "A",
        "tz_database_time_zone": "America/Halifax",
        "type": "airport",
        "source": "OurAirports"
    },
    {
        "id": "183",
        "nome": "Taloyoak Airport",
        "cidade": "Spence Bay",
        "pais": "Canada",
        "iata": "YYH",
        "icao": "CYYH",
        "latitude": "69.5466995239",
        "longitude": "-93.5766983032",
        "altitude": "92",
        "timezone": "-7",
        "dst": "A",
        "tz_database_time_zone": "America/Edmonton",
        "type": "airport",
        "source": "OurAirports"
    },
    {
        "id": "184",
        "nome": "Victoria International Airport",
        "cidade": "Victoria",
        "pais": "Canada",
        "iata": "YYJ",
        "icao": "CYYJ",
        "latitude": "48.646900177",
        "longitude": "-123.426002502",
        "altitude": "63",
        "timezone": "-8",
        "dst": "A",
        "tz_database_time_zone": "America/Vancouver",
        "type": "airport",
        "source": "OurAirports"
    },
    {
        "id": "185",
        "nome": "Lynn Lake Airport",
        "cidade": "Lynn Lake",
        "pais": "Canada",
        "iata": "YYL",
        "icao": "CYYL",
        "latitude": "56.86389923095703",
        "longitude": "-101.07599639892578",
        "altitude": "1170",
        "timezone": "-6",
        "dst": "A",
        "tz_database_time_zone": "America/Winnipeg",
        "type": "airport",
        "source": "OurAirports"
    },
    {
        "id": "186",
        "nome": "Swift Current Airport",
        "cidade": "Swift Current",
        "pais": "Canada",
        "iata": "YYN",
        "icao": "CYYN",
        "latitude": "50.291900634799994",
        "longitude": "-107.691001892",
        "altitude": "2680",
        "timezone": "-6",
        "dst": "N",
        "tz_database_time_zone": "America/Regina",
        "type": "airport",
        "source": "OurAirports"
    },
    {
        "id": "187",
        "nome": "Churchill Airport",
        "cidade": "Churchill",
        "pais": "Canada",
        "iata": "YYQ",
        "icao": "CYYQ",
        "latitude": "58.739200592041016",
        "longitude": "-94.06500244140625",
        "altitude": "94",
        "timezone": "-6",
        "dst": "A",
        "tz_database_time_zone": "America/Winnipeg",
        "type": "airport",
        "source": "OurAirports"
    },
    {
        "id": "188",
        "nome": "Goose Bay Airport",
        "cidade": "Goose Bay",
        "pais": "Canada",
        "iata": "YYR",
        "icao": "CYYR",
        "latitude": "53.3191986084",
        "longitude": "-60.4258003235",
        "altitude": "160",
        "timezone": "-4",
        "dst": "A",
        "tz_database_time_zone": "America/Halifax",
        "type": "airport",
        "source": "OurAirports"
    },
    {
        "id": "189",
        "nome": "St. John's International Airport",
        "cidade": "St. John's",
        "pais": "Canada",
        "iata": "YYT",
        "icao": "CYYT",
        "latitude": "47.618598938",
        "longitude": "-52.7518997192",
        "altitude": "461",
        "timezone": "-3.5",
        "dst": "A",
        "tz_database_time_zone": "America/St_Johns",
        "type": "airport",
        "source": "OurAirports"
    },
    {
        "id": "190",
        "nome": "Kapuskasing Airport",
        "cidade": "Kapuskasing",
        "pais": "Canada",
        "iata": "YYU",
        "icao": "CYYU",
        "latitude": "49.41389846801758",
        "longitude": "-82.46749877929688",
        "altitude": "743",
        "timezone": "-5",
        "dst": "A",
        "tz_database_time_zone": "America/Toronto",
        "type": "airport",
        "source": "OurAirports"
    },
    {
        "id": "191",
        "nome": "Armstrong Airport",
        "cidade": "Armstrong",
        "pais": "Canada",
        "iata": "YYW",
        "icao": "CYYW",
        "latitude": "50.29029846191406",
        "longitude": "-88.90969848632812",
        "altitude": "1058",
        "timezone": "-5",
        "dst": "A",
        "tz_database_time_zone": "America/Toronto",
        "type": "airport",
        "source": "OurAirports"
    },
    {
        "id": "192",
        "nome": "Mont Joli Airport",
        "cidade": "Mont Joli",
        "pais": "Canada",
        "iata": "YYY",
        "icao": "CYYY",
        "latitude": "48.60860061645508",
        "longitude": "-68.20809936523438",
        "altitude": "172",
        "timezone": "-5",
        "dst": "A",
        "tz_database_time_zone": "America/Toronto",
        "type": "airport",
        "source": "OurAirports"
    },
    {
        "id": "193",
        "nome": "Lester B. Pearson International Airport",
        "cidade": "Toronto",
        "pais": "Canada",
        "iata": "YYZ",
        "icao": "CYYZ",
        "latitude": "43.6772003174",
        "longitude": "-79.63059997559999",
        "altitude": "569",
        "timezone": "-5",
        "dst": "A",
        "tz_database_time_zone": "America/Toronto",
        "type": "airport",
        "source": "OurAirports"
    },
    {
        "id": "194",
        "nome": "Downsview Airport",
        "cidade": "Toronto",
        "pais": "Canada",
        "iata": "YZD",
        "icao": "CYZD",
        "latitude": "43.74250030517578",
        "longitude": "-79.4655990600586",
        "altitude": "652",
        "timezone": "-5",
        "dst": "A",
        "tz_database_time_zone": "America/Toronto",
        "type": "airport",
        "source": "OurAirports"
    },
    {
        "id": "195",
        "nome": "Gore Bay Manitoulin Airport",
        "cidade": "Gore Bay",
        "pais": "Canada",
        "iata": "YZE",
        "icao": "CYZE",
        "latitude": "45.88529968261719",
        "longitude": "-82.56780242919922",
        "altitude": "635",
        "timezone": "-5",
        "dst": "A",
        "tz_database_time_zone": "America/Toronto",
        "type": "airport",
        "source": "OurAirports"
    },
    {
        "id": "196",
        "nome": "Yellowknife Airport",
        "cidade": "Yellowknife",
        "pais": "Canada",
        "iata": "YZF",
        "icao": "CYZF",
        "latitude": "62.462799072265625",
        "longitude": "-114.44000244140625",
        "altitude": "675",
        "timezone": "-7",
        "dst": "A",
        "tz_database_time_zone": "America/Edmonton",
        "type": "airport",
        "source": "OurAirports"
    },
    {
        "id": "197",
        "nome": "Slave Lake Airport",
        "cidade": "Slave Lake",
        "pais": "Canada",
        "iata": "YZH",
        "icao": "CYZH",
        "latitude": "55.2930984497",
        "longitude": "-114.777000427",
        "altitude": "1912",
        "timezone": "-7",
        "dst": "A",
        "tz_database_time_zone": "America/Edmonton",
        "type": "airport",
        "source": "OurAirports"
    },
    {
        "id": "198",
        "nome": "Sandspit Airport",
        "cidade": "Sandspit",
        "pais": "Canada",
        "iata": "YZP",
        "icao": "CYZP",
        "latitude": "53.25429916379999",
        "longitude": "-131.813995361",
        "altitude": "21",
        "timezone": "-8",
        "dst": "A",
        "tz_database_time_zone": "America/Vancouver",
        "type": "airport",
        "source": "OurAirports"
    },
    {
        "id": "199",
        "nome": "Chris Hadfield Airport",
        "cidade": "Sarnia",
        "pais": "Canada",
        "iata": "YZR",
        "icao": "CYZR",
        "latitude": "42.9994010925293",
        "longitude": "-82.30889892578125",
        "altitude": "594",
        "timezone": "-5",
        "dst": "A",
        "tz_database_time_zone": "America/Toronto",
        "type": "airport",
        "source": "OurAirports"
    },
    {
        "id": "200",
        "nome": "Port Hardy Airport",
        "cidade": "Port Hardy",
        "pais": "Canada",
        "iata": "YZT",
        "icao": "CYZT",
        "latitude": "50.680599212646484",
        "longitude": "-127.36699676513672",
        "altitude": "71",
        "timezone": "-8",
        "dst": "A",
        "tz_database_time_zone": "America/Vancouver",
        "type": "airport",
        "source": "OurAirports"
    },
    {
        "id": "201",
        "nome": "Whitecourt Airport",
        "cidade": "Whitecourt",
        "pais": "Canada",
        "iata": "YZU",
        "icao": "CYZU",
        "latitude": "54.14390182495117",
        "longitude": "-115.78700256347656",
        "altitude": "2567",
        "timezone": "-7",
        "dst": "A",
        "tz_database_time_zone": "America/Edmonton",
        "type": "airport",
        "source": "OurAirports"
    },
    {
        "id": "202",
        "nome": "Sept-Îles Airport",
        "cidade": "Sept-iles",
        "pais": "Canada",
        "iata": "YZV",
        "icao": "CYZV",
        "latitude": "50.22330093383789",
        "longitude": "-66.2656021118164",
        "altitude": "180",
        "timezone": "-5",
        "dst": "A",
        "tz_database_time_zone": "America/Toronto",
        "type": "airport",
        "source": "OurAirports"
    },
    {
        "id": "203",
        "nome": "Teslin Airport",
        "cidade": "Teslin",
        "pais": "Canada",
        "iata": "YZW",
        "icao": "CYZW",
        "latitude": "60.17279815673828",
        "longitude": "-132.7429962158203",
        "altitude": "2313",
        "timezone": "-8",
        "dst": "A",
        "tz_database_time_zone": "America/Vancouver",
        "type": "airport",
        "source": "OurAirports"
    },
    {
        "id": "204",
        "nome": "CFB Greenwood",
        "cidade": "Greenwood",
        "pais": "Canada",
        "iata": "YZX",
        "icao": "CYZX",
        "latitude": "44.98440170288086",
        "longitude": "-64.91690063476562",
        "altitude": "92",
        "timezone": "-4",
        "dst": "A",
        "tz_database_time_zone": "America/Halifax",
        "type": "airport",
        "source": "OurAirports"
    },
    {
        "id": "205",
        "nome": "Faro Airport",
        "cidade": "Faro",
        "pais": "Canada",
        "iata": "ZFA",
        "icao": "CZFA",
        "latitude": "62.20750045776367",
        "longitude": "-133.37600708007812",
        "altitude": "2351",
        "timezone": "-8",
        "dst": "A",
        "tz_database_time_zone": "America/Vancouver",
        "type": "airport",
        "source": "OurAirports"
    },
    {
        "id": "206",
        "nome": "Fort Mcpherson Airport",
        "cidade": "Fort Mcpherson",
        "pais": "Canada",
        "iata": "ZFM",
        "icao": "CZFM",
        "latitude": "67.40750122070312",
        "longitude": "-134.86099243164062",
        "altitude": "116",
        "timezone": "-7",
        "dst": "A",
        "tz_database_time_zone": "America/Edmonton",
        "type": "airport",
        "source": "OurAirports"
    },
    {
        "id": "207",
        "nome": "Blida Airport",
        "cidade": "Blida",
        "pais": "Algeria",
        "iata": "QLD",
        "icao": "DAAB",
        "latitude": "36.50360107421875",
        "longitude": "2.8141698837280273",
        "altitude": "535",
        "timezone": "1",
        "dst": "N",
        "tz_database_time_zone": "Africa/Algiers",
        "type": "airport",
        "source": "OurAirports"
    },
    {
        "id": "208",
        "nome": "Bou Saada Airport",
        "cidade": "Bou Saada",
        "pais": "Algeria",
        "iata": "BUJ",
        "icao": "DAAD",
        "latitude": "35.33250045776367",
        "longitude": "4.206389904022217",
        "altitude": "1506",
        "timezone": "1",
        "dst": "N",
        "tz_database_time_zone": "Africa/Algiers",
        "type": "airport",
        "source": "OurAirports"
    },
    {
        "id": "209",
        "nome": "Soummam Airport",
        "cidade": "Bejaja",
        "pais": "Algeria",
        "iata": "BJA",
        "icao": "DAAE",
        "latitude": "36.7120018005",
        "longitude": "5.0699200630200005",
        "altitude": "20",
        "timezone": "1",
        "dst": "N",
        "tz_database_time_zone": "Africa/Algiers",
        "type": "airport",
        "source": "OurAirports"
    },
    {
        "id": "210",
        "nome": "Houari Boumediene Airport",
        "cidade": "Algier",
        "pais": "Algeria",
        "iata": "ALG",
        "icao": "DAAG",
        "latitude": "36.691001892089844",
        "longitude": "3.215409994125366",
        "altitude": "82",
        "timezone": "1",
        "dst": "N",
        "tz_database_time_zone": "Africa/Algiers",
        "type": "airport",
        "source": "OurAirports"
    },
    {
        "id": "211",
        "nome": "Djanet Inedbirene Airport",
        "cidade": "Djanet",
        "pais": "Algeria",
        "iata": "DJG",
        "icao": "DAAJ",
        "latitude": "24.292801",
        "longitude": "9.45244",
        "altitude": "3176",
        "timezone": "1",
        "dst": "N",
        "tz_database_time_zone": "Africa/Algiers",
        "type": "airport",
        "source": "OurAirports"
    },
    {
        "id": "212",
        "nome": "Boufarik Airport",
        "cidade": "Boufarik",
        "pais": "Algeria",
        "iata": "\\N",
        "icao": "DAAK",
        "latitude": "36.545799",
        "longitude": "2.87611",
        "altitude": "335",
        "timezone": "1",
        "dst": "N",
        "tz_database_time_zone": "Africa/Algiers",
        "type": "airport",
        "source": "OurAirports"
    },
    {
        "id": "213",
        "nome": "Reggane Airport",
        "cidade": "Reggan",
        "pais": "Algeria",
        "iata": "\\N",
        "icao": "DAAN",
        "latitude": "26.7101",
        "longitude": "0.285647",
        "altitude": "955",
        "timezone": "1",
        "dst": "N",
        "tz_database_time_zone": "Africa/Algiers",
        "type": "airport",
        "source": "OurAirports"
    },
    {
        "id": "214",
        "nome": "Illizi Takhamalt Airport",
        "cidade": "Illizi",
        "pais": "Algeria",
        "iata": "VVZ",
        "icao": "DAAP",
        "latitude": "26.7234992981",
        "longitude": "8.62265014648",
        "altitude": "1778",
        "timezone": "1",
        "dst": "N",
        "tz_database_time_zone": "Africa/Algiers",
        "type": "airport",
        "source": "OurAirports"
    },
    {
        "id": "215",
        "nome": "Ain Oussera Airport",
        "cidade": "Ain Oussera",
        "pais": "Algeria",
        "iata": "\\N",
        "icao": "DAAQ",
        "latitude": "35.52539825439453",
        "longitude": "2.8787100315093994",
        "altitude": "2132",
        "timezone": "1",
        "dst": "N",
        "tz_database_time_zone": "Africa/Algiers",
        "type": "airport",
        "source": "OurAirports"
    },
    {
        "id": "216",
        "nome": "Aguenar – Hadj Bey Akhamok Airport",
        "cidade": "Tamanrasset",
        "pais": "Algeria",
        "iata": "TMR",
        "icao": "DAAT",
        "latitude": "22.8115005493",
        "longitude": "5.45107984543",
        "altitude": "4518",
        "timezone": "1",
        "dst": "N",
        "tz_database_time_zone": "Africa/Algiers",
        "type": "airport",
        "source": "OurAirports"
    },
    {
        "id": "217",
        "nome": "Jijel Ferhat Abbas Airport",
        "cidade": "Jijel",
        "pais": "Algeria",
        "iata": "GJL",
        "icao": "DAAV",
        "latitude": "36.7951011658",
        "longitude": "5.87361001968",
        "altitude": "36",
        "timezone": "1",
        "dst": "N",
        "tz_database_time_zone": "Africa/Algiers",
        "type": "airport",
        "source": "OurAirports"
    },
    {
        "id": "218",
        "nome": "Mecheria Airport",
        "cidade": "Mecheria",
        "pais": "Algeria",
        "iata": "MZW",
        "icao": "DAAY",
        "latitude": "33.535900116",
        "longitude": "-0.242353007197",
        "altitude": "3855",
        "timezone": "1",
        "dst": "N",
        "tz_database_time_zone": "Africa/Algiers",
        "type": "airport",
        "source": "OurAirports"
    },
    {
        "id": "219",
        "nome": "Relizane Airport",
        "cidade": "Relizane",
        "pais": "Algeria",
        "iata": "\\N",
        "icao": "DAAZ",
        "latitude": "35.752201",
        "longitude": "0.626272",
        "altitude": "282",
        "timezone": "1",
        "dst": "N",
        "tz_database_time_zone": "Africa/Algiers",
        "type": "airport",
        "source": "OurAirports"
    },
    {
        "id": "220",
        "nome": "Rabah Bitat Airport",
        "cidade": "Annaba",
        "pais": "Algeria",
        "iata": "AAE",
        "icao": "DABB",
        "latitude": "36.822201",
        "longitude": "7.809174",
        "altitude": "16",
        "timezone": "1",
        "dst": "N",
        "tz_database_time_zone": "Africa/Algiers",
        "type": "airport",
        "source": "OurAirports"
    },
    {
        "id": "221",
        "nome": "Mohamed Boudiaf International Airport",
        "cidade": "Constantine",
        "pais": "Algeria",
        "iata": "CZL",
        "icao": "DABC",
        "latitude": "36.2760009765625",
        "longitude": "6.620389938354492",
        "altitude": "2265",
        "timezone": "1",
        "dst": "N",
        "tz_database_time_zone": "Africa/Algiers",
        "type": "airport",
        "source": "OurAirports"
    },
    {
        "id": "222",
        "nome": "Cheikh Larbi Tébessi Airport",
        "cidade": "Tebessa",
        "pais": "Algeria",
        "iata": "TEE",
        "icao": "DABS",
        "latitude": "35.4315986633",
        "longitude": "8.12071990967",
        "altitude": "2661",
        "timezone": "1",
        "dst": "N",
        "tz_database_time_zone": "Africa/Algiers",
        "type": "airport",
        "source": "OurAirports"
    },
    {
        "id": "224",
        "nome": "Hassi R'Mel Airport",
        "cidade": "Tilrempt",
        "pais": "Algeria",
        "iata": "HRM",
        "icao": "DAFH",
        "latitude": "32.93040084838867",
        "longitude": "3.311539888381958",
        "altitude": "2540",
        "timezone": "1",
        "dst": "N",
        "tz_database_time_zone": "Africa/Algiers",
        "type": "airport",
        "source": "OurAirports"
    },
    {
        "id": "225",
        "nome": "Bou Chekif Airport",
        "cidade": "Tiaret",
        "pais": "Algeria",
        "iata": "TID",
        "icao": "DAOB",
        "latitude": "35.3410987854",
        "longitude": "1.46315002441",
        "altitude": "3245",
        "timezone": "1",
        "dst": "N",
        "tz_database_time_zone": "Africa/Algiers",
        "type": "airport",
        "source": "OurAirports"
    },
    {
        "id": "226",
        "nome": "Bou Sfer Airport",
        "cidade": "Bou Sfer",
        "pais": "Algeria",
        "iata": "\\N",
        "icao": "DAOE",
        "latitude": "35.73540115356445",
        "longitude": "-0.8053889870643616",
        "altitude": "187",
        "timezone": "1",
        "dst": "N",
        "tz_database_time_zone": "Africa/Algiers",
        "type": "airport",
        "source": "OurAirports"
    },